{"type":"FeatureCollection","features":[{"type":"Feature","properties":{"name":"Vienna","active":"false"},"geometry":{"coordinates":[16.380940157128578,48.194244026737465],"type":"Point"}},{"type":"Feature","properties":{"name":"Berlin","active":"false"},"geometry":{"coordinates":[13.396485170388303,52.550232985524985],"type":"Point"}},{"type":"Feature","properties":{"name":"Slovenia","active":"true"},"geometry":{"coordinates":[14.690331350780895,46.17047865696159],"type":"Point"}},{"type":"Feature","properties":{"name":"Budapest","active":"true"},"geometry":{"coordinates":[19.03030048263639,47.49840678178754],"type":"Point"}},{"type":"Feature","properties":{"name":"Krakow","active":"true"},"geometry":{"coordinates":[19.929716902188403,50.06571229260328],"type":"Point"}},{"type":"Feature","properties":{"name":"Prague","active":"true"},"geometry":{"coordinates":[14.424737471878188,50.08717586017585],"type":"Point"}}]}